timestamp,detection_confidence,estimated_distance_cm,flight_time,battery,acc_x,acc_y,acc_z,pitch,roll,yaw_attitude,altitude_tof,vel_x,vel_y,vel_z,rc_lr,rc_fb,rc_ud,rc_yaw
2025-08-07T14:22:45.644933,0.0,0.0,13,39,-19.0,12.0,-1000.0,0,0,171,167,0,0,-1,0,0,0,25
2025-08-07T14:22:45.825062,0.8117325901985168,76.71232876712328,13,39,0.0,11.0,-982.0,0,0,171,169,0,0,-1,0,-7,-27,-22
2025-08-07T14:22:45.859247,0.39336228370666504,99.55555555555556,13,39,0.0,11.0,-982.0,0,0,171,169,0,0,-1,0,-9,12,-30
2025-08-07T14:22:45.891371,0.39336228370666504,99.55555555555556,13,39,0.0,-5.0,-957.0,0,0,172,170,0,0,-1,0,-10,-20,-30
2025-08-07T14:22:45.921338,0.7884284257888794,78.32167832167832,13,39,0.0,-5.0,-957.0,0,0,172,170,0,0,-1,0,-9,-20,30
2025-08-07T14:22:45.938917,0.7884284257888794,78.32167832167832,13,39,0.0,-5.0,-957.0,0,0,172,170,0,0,-1,0,-8,-20,-15
2025-08-07T14:22:45.974207,0.8659689426422119,79.43262411347517,13,39,0.0,-5.0,-957.0,0,0,172,170,0,0,-1,0,-8,-20,-19
2025-08-07T14:22:46.004886,0.862427830696106,78.32167832167832,13,39,-5.0,23.0,-960.0,0,0,173,171,0,0,0,0,-7,-20,-20
2025-08-07T14:22:46.035896,0.8853371739387512,79.15194346289752,13,39,-5.0,23.0,-960.0,0,0,173,171,0,0,0,0,-5,-20,-21
2025-08-07T14:22:46.072657,0.8669473528862,76.19047619047619,13,39,-5.0,23.0,-960.0,0,0,173,171,0,0,0,0,-6,-20,-19
2025-08-07T14:22:46.086319,0.86041259765625,74.17218543046357,13,39,-5.0,23.0,-960.0,0,0,173,171,0,0,0,0,-6,-20,-18
2025-08-07T14:22:46.107396,0.8801611065864563,74.66666666666667,13,39,-9.0,20.0,-963.0,0,0,172,170,0,0,0,0,-6,-20,-20
2025-08-07T14:22:46.123398,0.8801611065864563,74.66666666666667,13,39,-9.0,20.0,-963.0,0,0,172,170,0,0,0,0,-6,-20,-19
2025-08-07T14:22:46.140399,0.8801611065864563,74.66666666666667,13,39,-9.0,20.0,-963.0,0,0,172,170,0,0,0,0,-6,-20,-19
2025-08-07T14:22:46.155397,0.8690276145935059,74.91638795986623,13,39,-9.0,20.0,-963.0,0,0,172,170,0,0,0,0,-6,-20,-21
2025-08-07T14:22:46.170720,0.8690276145935059,74.91638795986623,13,39,-9.0,20.0,-963.0,0,0,172,170,0,0,0,0,-6,-20,-20
2025-08-07T14:22:46.194218,0.8515779376029968,74.66666666666667,13,39,-3.0,9.0,-971.0,0,0,172,170,0,0,0,0,-6,-20,-20
2025-08-07T14:22:46.212502,0.8515779376029968,74.66666666666667,13,39,-3.0,9.0,-971.0,0,0,172,170,0,0,0,0,-6,-20,-20
2025-08-07T14:22:46.235980,0.843120813369751,75.9322033898305,13,39,-3.0,9.0,-971.0,0,0,172,170,0,0,0,0,-6,-20,-21
2025-08-07T14:22:46.270910,0.8565695881843567,72.9641693811075,13,39,-3.0,9.0,-971.0,0,0,172,170,0,0,0,0,-6,-20,-18
2025-08-07T14:22:46.303910,0.8853451609611511,72.9641693811075,14,39,4.0,0.0,-972.0,0,0,171,170,0,0,0,0,-7,-20,-19
2025-08-07T14:22:46.335132,0.8449975848197937,72.02572347266882,14,39,4.0,0.0,-972.0,0,0,171,170,0,0,0,0,-7,-20,-19
2025-08-07T14:22:46.366130,0.8356688022613525,77.77777777777777,14,39,4.0,0.0,-972.0,0,0,171,170,0,0,0,0,-7,-20,-23
2025-08-07T14:22:46.387140,0.8313236236572266,76.45051194539249,14,39,4.0,0.0,-972.0,0,0,171,170,0,0,0,0,-7,-20,-20
2025-08-07T14:22:46.409632,0.8313236236572266,76.45051194539249,14,39,-5.0,11.0,-978.0,0,0,171,169,0,0,0,0,-6,-20,-21
2025-08-07T14:22:46.438518,0.8597869873046875,71.3375796178344,14,39,-5.0,11.0,-978.0,0,0,171,169,0,0,0,0,-6,-20,-16
2025-08-07T14:22:46.470352,0.8657206296920776,70.21943573667711,14,39,-5.0,11.0,-978.0,0,0,171,169,0,0,0,0,-7,-20,-17
2025-08-07T14:22:46.504063,0.8325823545455933,70.88607594936708,14,39,12.0,-7.0,-974.0,0,0,170,167,0,0,0,0,-7,-20,-17
2025-08-07T14:22:46.534017,0.8567790389060974,70.21943573667711,14,39,12.0,-7.0,-974.0,0,0,170,167,0,0,0,0,-7,-20,-16
2025-08-07T14:22:46.569342,0.8066892027854919,72.25806451612904,14,39,12.0,-7.0,-974.0,0,0,170,167,0,0,0,0,-8,-20,-17
2025-08-07T14:22:46.604339,0.8577892184257507,69.1358024691358,14,39,-4.0,-2.0,-992.0,0,0,169,167,0,0,0,0,-8,-20,-13
2025-08-07T14:22:46.633153,0.8754489421844482,69.1358024691358,14,39,-4.0,-2.0,-992.0,0,0,169,167,0,0,0,0,-8,-20,-12
2025-08-07T14:22:46.665634,0.8528405427932739,68.08510638297872,14,39,-4.0,-2.0,-992.0,0,0,169,167,0,0,0,0,-8,-20,-12
2025-08-07T14:22:46.685925,0.8457805514335632,65.88235294117646,14,39,-4.0,-2.0,-992.0,0,0,169,167,0,0,0,0,-8,-20,-9
2025-08-07T14:22:46.708245,0.8457805514335632,65.88235294117646,14,39,-7.0,17.0,-1005.0,0,0,169,165,0,0,0,0,-9,-29,-11
2025-08-07T14:22:46.737252,0.8744539618492126,66.86567164179104,14,39,-7.0,17.0,-1005.0,0,0,169,165,0,0,0,0,-9,-28,-10
2025-08-07T14:22:46.775489,0.8757439851760864,65.11627906976744,14,39,-7.0,17.0,-1005.0,0,0,169,165,0,0,0,0,-9,-27,-7
2025-08-07T14:22:46.797177,0.9045782089233398,65.49707602339181,14,39,-7.0,17.0,-1005.0,0,0,169,165,0,0,0,0,-10,-28,-8
2025-08-07T14:22:46.824268,0.8874146342277527,66.07669616519173,14,39,-13.0,7.0,-1006.0,0,0,168,164,0,0,0,0,-10,-28,-7
2025-08-07T14:22:46.843744,0.8874146342277527,66.07669616519173,14,39,-13.0,7.0,-1006.0,0,0,168,164,0,0,0,0,-10,-28,-8
2025-08-07T14:22:46.872125,0.8785226941108704,65.3061224489796,14,39,-13.0,7.0,-1006.0,0,0,168,164,0,0,0,0,-10,-27,0
2025-08-07T14:22:46.889123,0.8785226941108704,65.3061224489796,14,39,-13.0,7.0,-1006.0,0,0,168,164,0,0,0,0,-10,-27,0
2025-08-07T14:22:46.907985,0.8785226941108704,65.3061224489796,14,39,14.0,3.0,-990.0,0,0,168,163,0,0,1,0,-10,-27,0
2025-08-07T14:22:46.941002,0.5970550775527954,62.56983240223464,14,39,14.0,3.0,-990.0,0,0,168,163,0,0,1,0,-10,-27,0
2025-08-07T14:22:46.979226,0.709786057472229,63.81766381766382,14,39,14.0,3.0,-990.0,0,0,168,163,0,0,1,0,-10,-27,0
2025-08-07T14:22:47.012225,0.6737819314002991,65.88235294117646,14,39,19.0,-7.0,-982.0,0,0,168,161,0,0,1,0,-10,-26,0
2025-08-07T14:22:47.035625,0.865018367767334,63.63636363636363,14,39,19.0,-7.0,-982.0,0,0,168,161,0,0,1,0,-11,-26,0
2025-08-07T14:22:47.069016,0.8783046007156372,64.36781609195403,14,39,19.0,-7.0,-982.0,0,0,168,161,0,0,1,0,-11,-27,0
2025-08-07T14:22:47.097673,0.9018647074699402,64.0,14,39,19.0,-7.0,-982.0,0,0,168,161,0,0,1,0,-11,-27,0
2025-08-07T14:22:47.122847,0.9130458831787109,64.73988439306359,14,39,14.0,-5.0,-988.0,0,0,168,160,0,0,1,0,-11,-26,0
2025-08-07T14:22:47.140335,0.9130458831787109,64.73988439306359,14,39,14.0,-5.0,-988.0,0,0,168,160,0,0,1,0,-11,-26,0
2025-08-07T14:22:47.162338,0.8904985189437866,62.745098039215684,14,39,14.0,-5.0,-988.0,0,0,168,160,0,0,1,0,-11,-26,0
2025-08-07T14:22:47.196336,0.875484049320221,63.45609065155807,14,39,14.0,-5.0,-988.0,0,0,168,160,0,0,1,0,-11,-26,0
2025-08-07T14:22:47.231335,0.9021960496902466,63.098591549295776,14,39,-4.0,9.0,-988.0,0,0,168,159,0,0,1,0,-11,-25,0
2025-08-07T14:22:47.252929,0.4840002954006195,64.36781609195403,14,39,-4.0,9.0,-988.0,0,0,168,159,0,0,1,0,-11,-25,0
2025-08-07T14:22:47.280015,0.7812963128089905,63.27683615819209,14,39,-4.0,9.0,-988.0,0,0,168,159,0,0,1,0,-11,-25,0
2025-08-07T14:22:47.303138,0.7812963128089905,63.27683615819209,14,39,-4.0,9.0,-988.0,0,0,168,159,0,0,1,0,-11,-25,0
2025-08-07T14:22:47.335139,0.8676846623420715,62.92134831460674,15,39,3.0,8.0,-990.0,0,0,168,157,0,0,1,0,-12,-25,0
2025-08-07T14:22:47.360854,0.7648378014564514,92.56198347107438,15,39,3.0,8.0,-990.0,0,0,168,157,0,0,1,0,-10,-24,-27
2025-08-07T14:22:47.380425,0.7648378014564514,92.56198347107438,15,39,3.0,8.0,-990.0,0,0,168,157,0,0,1,0,-9,-24,-17
2025-08-07T14:22:47.409432,0.6947664022445679,62.92134831460674,15,39,3.0,8.0,-990.0,0,0,168,157,0,0,1,0,-9,-24,0
2025-08-07T14:22:47.429500,0.82401043176651,62.22222222222222,15,39,7.0,-10.0,-989.0,0,0,168,156,0,0,1,0,-9,-24,0
2025-08-07T14:22:47.454280,0.8714672923088074,62.745098039215684,15,39,7.0,-10.0,-989.0,0,0,168,156,0,0,1,0,-9,-23,0
2025-08-07T14:22:47.471479,0.8714672923088074,62.745098039215684,15,39,7.0,-10.0,-989.0,0,0,168,156,0,0,1,0,-11,-23,0
2025-08-07T14:22:47.485891,0.8078243732452393,62.56983240223464,15,39,7.0,-10.0,-989.0,0,0,168,156,0,0,1,0,-13,-22,0
2025-08-07T14:22:47.508452,0.8078243732452393,62.56983240223464,15,39,7.0,-10.0,-989.0,0,0,168,156,0,0,1,0,-13,-22,0
2025-08-07T14:22:47.536021,0.8564271330833435,62.745098039215684,15,39,-11.0,-1.0,-1008.0,0,0,168,154,0,0,1,0,-13,-22,0
2025-08-07T14:22:47.548471,0.8962115049362183,63.45609065155807,15,39,-11.0,-1.0,-1008.0,0,0,168,154,0,0,1,0,-13,-22,0
2025-08-07T14:22:47.567596,0.8962115049362183,63.45609065155807,15,39,-11.0,-1.0,-1008.0,0,0,168,154,0,0,1,0,-13,-22,0
2025-08-07T14:22:47.605302,0.8789747357368469,63.45609065155807,15,39,-11.0,-1.0,-1008.0,0,0,168,154,0,0,1,0,-13,-21,0
2025-08-07T14:22:47.632301,0.8674459457397461,63.63636363636363,15,39,0.0,13.0,-1003.0,0,0,168,153,0,0,1,0,-13,-21,0
2025-08-07T14:22:47.664768,0.8402911424636841,63.45609065155807,15,39,0.0,13.0,-1003.0,0,0,168,153,0,0,1,0,-13,-21,0
2025-08-07T14:22:47.695963,0.8469765186309814,63.27683615819209,15,39,0.0,13.0,-1003.0,0,0,168,153,0,0,1,0,-13,-20,0
2025-08-07T14:22:47.714703,0.8696129322052002,63.098591549295776,15,39,0.0,13.0,-1003.0,0,0,168,153,0,0,1,0,-13,-19,0
2025-08-07T14:22:47.734892,0.8696129322052002,63.098591549295776,15,39,2.0,-12.0,-1006.0,0,0,168,151,0,0,1,0,-13,-19,0
2025-08-07T14:22:47.764664,0.8919668793678284,63.81766381766382,15,39,2.0,-12.0,-1006.0,0,0,168,151,0,0,1,0,-14,-18,0
2025-08-07T14:22:47.778664,0.8323243856430054,63.81766381766382,15,39,2.0,-12.0,-1006.0,0,0,168,151,0,0,1,0,-14,-18,0
2025-08-07T14:22:47.797669,0.8323243856430054,63.81766381766382,15,39,2.0,-12.0,-1006.0,0,0,168,151,0,0,1,0,-14,-18,0
2025-08-07T14:22:47.829257,0.871096670627594,63.63636363636363,15,39,0.0,0.0,-1010.0,0,0,168,150,0,0,1,0,-14,-18,0
2025-08-07T14:22:47.848510,0.871096670627594,63.63636363636363,15,39,0.0,0.0,-1010.0,0,0,168,150,0,0,1,0,-14,-18,0
2025-08-07T14:22:47.874504,0.8882195949554443,64.73988439306359,15,39,0.0,0.0,-1010.0,0,0,168,150,0,0,1,0,-14,-15,0
2025-08-07T14:22:47.912350,0.8882195949554443,64.73988439306359,15,39,0.0,0.0,-1010.0,0,0,168,150,0,0,1,0,-14,-15,0
2025-08-07T14:22:47.937748,0.6816437244415283,64.0,15,39,-5.0,6.0,-1005.0,0,0,168,148,0,0,1,0,-14,-16,0
2025-08-07T14:22:47.970477,0.8498731255531311,64.55331412103746,15,39,-5.0,6.0,-1005.0,0,0,168,148,0,0,1,0,-15,-14,0
2025-08-07T14:22:47.996798,0.7406691908836365,64.0,15,39,-5.0,6.0,-1005.0,0,0,168,148,0,0,1,0,-15,-14,0
2025-08-07T14:22:48.023029,0.8672780394554138,65.49707602339181,15,39,-5.0,6.0,-1005.0,0,0,168,148,0,0,1,0,-15,-17,0
2025-08-07T14:22:48.038453,0.8672780394554138,65.49707602339181,15,39,20.0,-13.0,-998.0,0,0,168,148,1,0,1,0,-14,-17,0
2025-08-07T14:22:48.058717,0.8906640410423279,73.44262295081967,15,39,20.0,-13.0,-998.0,0,0,168,148,1,0,1,0,-14,-18,0
2025-08-07T14:22:48.090360,0.871372401714325,66.07669616519173,15,39,2.0,-5.0,-1011.0,0,0,168,146,1,0,1,0,-13,-17,0
2025-08-07T14:22:48.123570,0.8832650780677795,66.66666666666667,15,39,2.0,-5.0,-1011.0,0,0,168,146,1,0,1,0,-13,-17,0
2025-08-07T14:22:48.154362,0.8945099711418152,69.1358024691358,15,39,2.0,-5.0,-1011.0,0,0,168,146,1,0,1,0,-12,-18,0
2025-08-07T14:22:48.186133,0.8739296793937683,65.6891495601173,15,39,-12.0,4.0,-1025.0,0,0,168,145,1,0,0,0,-12,-16,0
2025-08-07T14:22:48.208683,0.902144730091095,68.08510638297872,15,39,-12.0,4.0,-1025.0,0,0,168,145,1,0,0,0,-13,-17,0
2025-08-07T14:22:48.232467,0.902144730091095,68.08510638297872,15,39,-12.0,4.0,-1025.0,0,0,168,145,1,0,0,0,-13,-17,0
2025-08-07T14:22:48.265616,0.8984705209732056,66.07669616519173,15,39,-12.0,4.0,-1025.0,0,0,168,145,1,0,0,0,-13,-17,0
2025-08-07T14:22:48.283938,0.8984705209732056,66.07669616519173,16,39,0.0,-10.0,-1003.0,0,0,168,145,1,0,0,0,-13,-17,0
2025-08-07T14:22:48.313956,0.8549391031265259,66.07669616519173,16,39,0.0,-10.0,-1003.0,0,0,168,145,1,0,0,0,-13,-14,0
2025-08-07T14:22:48.339816,0.575829803943634,68.29268292682927,16,39,0.0,-10.0,-1003.0,0,0,168,145,1,0,0,0,-13,-16,0
2025-08-07T14:22:48.372952,0.8179599642753601,70.44025157232704,16,39,0.0,-10.0,-1003.0,0,0,168,145,1,0,0,0,-13,-17,0
2025-08-07T14:22:48.401051,0.7426561117172241,64.92753623188406,16,39,0.0,-10.0,-1003.0,0,0,168,145,1,0,0,0,-13,-14,0
2025-08-07T14:22:48.431137,0.8110174536705017,69.78193146417445,16,39,0.0,-10.0,-1003.0,0,0,168,145,1,0,0,0,-13,-16,0
2025-08-07T14:22:48.464004,0.8884616494178772,65.88235294117646,16,39,-20.0,17.0,-1012.0,0,0,168,144,1,0,0,0,-13,-15,0
2025-08-07T14:22:48.496711,0.9003835320472717,64.55331412103746,16,39,-20.0,17.0,-1012.0,0,0,168,144,1,0,0,0,-13,-15,0
2025-08-07T14:22:48.521338,0.8894290924072266,64.55331412103746,16,39,-20.0,17.0,-1012.0,0,0,168,144,1,0,0,0,-14,-15,0
2025-08-07T14:22:48.543337,0.8894290924072266,64.55331412103746,16,39,5.0,-11.0,-1005.0,0,0,168,144,1,0,0,0,-14,-15,0
2025-08-07T14:22:48.574443,0.8752496838569641,64.92753623188406,16,39,5.0,-11.0,-1005.0,0,0,168,144,1,0,0,0,-14,-15,0
2025-08-07T14:22:48.602563,0.8741664886474609,64.36781609195403,16,39,5.0,-11.0,-1005.0,0,0,168,144,1,0,0,0,-14,-15,0
2025-08-07T14:22:48.635924,0.6607271432876587,64.55331412103746,16,39,5.0,-11.0,-1005.0,0,0,168,144,1,0,0,0,-14,-15,0
2025-08-07T14:22:48.667916,0.6205719113349915,64.18338108882521,16,39,-12.0,-3.0,-993.0,0,0,168,143,1,0,0,0,-14,-15,0
2025-08-07T14:22:48.698988,0.8666346073150635,64.55331412103746,16,39,-12.0,-3.0,-993.0,0,0,168,143,1,0,0,0,-14,-15,0
2025-08-07T14:22:48.734513,0.9023034572601318,64.0,16,39,-12.0,-3.0,-993.0,0,0,168,143,1,0,0,0,-14,-15,0
2025-08-07T14:22:48.756615,0.884435772895813,64.55331412103746,16,39,7.0,-1.0,-996.0,0,0,168,142,1,0,0,0,-14,-15,0
2025-08-07T14:22:48.772615,0.884435772895813,64.55331412103746,16,39,7.0,-1.0,-996.0,0,0,168,142,1,0,0,0,-14,-15,0
2025-08-07T14:22:48.786862,0.8606811165809631,65.11627906976744,16,39,7.0,-1.0,-996.0,0,0,168,142,1,0,0,0,-14,-15,0
2025-08-07T14:22:48.809946,0.8606811165809631,65.11627906976744,16,39,6.0,-6.0,-999.0,0,0,168,142,1,0,0,0,-14,-15,0
2025-08-07T14:22:48.841018,0.8877432942390442,65.11627906976744,16,39,6.0,-6.0,-999.0,0,0,168,142,1,0,0,0,-14,-15,0
2025-08-07T14:22:48.865939,0.871805727481842,65.49707602339181,16,39,6.0,-6.0,-999.0,0,0,168,142,1,0,0,0,-14,-14,0
2025-08-07T14:22:48.888942,0.871805727481842,65.49707602339181,16,39,6.0,-6.0,-999.0,0,0,168,142,1,0,0,0,-14,-14,0
2025-08-07T14:22:48.912207,0.27788978815078735,64.18338108882521,16,39,17.0,0.0,-999.0,0,0,168,141,1,0,0,0,-14,-14,0
2025-08-07T14:22:48.938358,0.27788978815078735,64.18338108882521,16,39,17.0,0.0,-999.0,0,0,168,141,1,0,0,0,-14,-14,0
2025-08-07T14:22:48.965834,0.8257695436477661,66.07669616519173,16,39,17.0,0.0,-999.0,0,0,168,141,1,0,0,0,-14,-15,0
2025-08-07T14:22:49.000097,0.8959423899650574,67.26726726726727,16,39,17.0,0.0,-999.0,0,0,168,141,1,0,0,0,-14,-15,0
2025-08-07T14:22:49.020050,0.8988226056098938,66.86567164179104,16,39,-7.0,2.0,-1013.0,0,0,168,141,1,0,0,0,-14,-14,0
2025-08-07T14:22:49.044199,0.8988226056098938,66.86567164179104,16,39,-7.0,2.0,-1013.0,0,0,168,141,1,0,0,0,-14,-14,0
2025-08-07T14:22:49.070321,0.9042644500732422,66.86567164179104,16,39,-7.0,2.0,-1013.0,0,0,168,141,1,0,0,0,-14,-15,0
2025-08-07T14:22:49.103807,0.9075840711593628,67.46987951807229,16,39,7.0,-14.0,-995.0,0,0,168,140,1,0,0,0,-14,-15,0
2025-08-07T14:22:49.139353,0.8972549438476562,67.06586826347305,16,39,7.0,-14.0,-995.0,0,0,168,140,1,0,0,0,-14,-15,0
2025-08-07T14:22:49.170445,0.8753288388252258,67.06586826347305,16,39,7.0,-14.0,-995.0,0,0,168,140,1,0,0,0,-14,-15,0
2025-08-07T14:22:49.199637,0.9083028435707092,66.07669616519173,16,39,7.0,-14.0,-995.0,0,0,168,140,1,0,0,0,-14,-14,0
2025-08-07T14:22:49.225636,0.8954152464866638,67.06586826347305,17,39,-16.0,10.0,-1002.0,0,0,168,140,1,0,0,0,-14,-14,0
2025-08-07T14:22:49.241951,0.8813230395317078,66.66666666666667,17,39,-16.0,10.0,-1002.0,0,0,168,140,1,0,0,0,-14,-14,0
2025-08-07T14:22:49.262579,0.8813230395317078,66.66666666666667,17,39,-16.0,10.0,-1002.0,0,0,168,140,1,0,0,0,-14,-14,0
2025-08-07T14:22:49.289898,0.8894299864768982,66.66666666666667,17,39,-16.0,10.0,-1002.0,0,0,168,140,1,0,0,0,-14,-14,0
2025-08-07T14:22:49.308989,0.8894299864768982,66.66666666666667,17,39,-2.0,-2.0,-1000.0,0,0,168,139,1,0,0,0,-14,-14,0
2025-08-07T14:22:49.336989,0.9070335030555725,66.86567164179104,17,39,-2.0,-2.0,-1000.0,0,0,168,139,1,0,0,0,-14,-13,0
2025-08-07T14:22:49.350991,0.8899189233779907,67.06586826347305,17,39,-2.0,-2.0,-1000.0,0,0,168,139,1,0,0,0,-14,-13,0
2025-08-07T14:22:49.375464,0.8899189233779907,67.06586826347305,17,39,-2.0,-2.0,-1000.0,0,0,168,139,1,0,0,0,-14,-13,0
2025-08-07T14:22:49.405819,0.8893318176269531,67.06586826347305,17,39,-2.0,-2.0,-1000.0,0,0,168,139,1,0,0,0,-14,-13,0
2025-08-07T14:22:49.423932,0.8843896389007568,67.87878787878788,17,39,-3.0,0.0,-999.0,0,0,168,139,1,0,0,0,-14,-13,0
2025-08-07T14:22:49.446127,0.8987074494361877,68.92307692307692,17,39,-3.0,0.0,-999.0,0,0,168,139,1,0,0,0,-14,-14,0
2025-08-07T14:22:49.465698,0.8987074494361877,68.92307692307692,17,39,-3.0,0.0,-999.0,0,0,168,139,1,0,0,0,-14,-14,0
2025-08-07T14:22:49.492150,0.8776794075965881,69.56521739130434,17,39,-3.0,0.0,-999.0,0,0,168,139,1,0,0,0,-14,-13,0
2025-08-07T14:22:49.510561,0.8776794075965881,69.56521739130434,17,39,-6.0,-3.0,-999.0,0,0,168,139,1,0,0,0,-13,-13,0
2025-08-07T14:22:49.538747,0.8653476238250732,72.25806451612904,17,39,-6.0,-3.0,-999.0,0,0,168,139,1,0,0,0,-13,-14,0
2025-08-07T14:22:49.554948,0.8583148717880249,74.4186046511628,17,39,-6.0,-3.0,-999.0,0,0,168,139,1,0,0,0,-13,-14,0
2025-08-07T14:22:49.573953,0.8583148717880249,74.4186046511628,17,39,-6.0,-3.0,-999.0,0,0,168,139,1,0,0,0,-12,-14,0
2025-08-07T14:22:49.609374,0.8473700284957886,71.7948717948718,17,39,-11.0,15.0,-1014.0,0,0,168,138,1,0,0,0,-12,-13,0
2025-08-07T14:22:49.639622,0.8659961223602295,73.44262295081967,17,39,-11.0,15.0,-1014.0,0,0,168,138,1,0,0,0,-12,-13,0
2025-08-07T14:22:49.667624,0.8649333715438843,72.9641693811075,17,39,-11.0,15.0,-1014.0,0,0,168,138,1,0,0,0,-12,-14,0
2025-08-07T14:22:49.697830,0.8967193961143494,73.20261437908496,17,39,-11.0,15.0,-1014.0,0,0,168,138,1,0,0,0,-12,-13,0
2025-08-07T14:22:49.729833,0.7596450448036194,74.4186046511628,17,39,-2.0,6.0,-998.0,0,0,168,138,1,0,0,0,-12,-14,0
2025-08-07T14:22:49.756088,0.8469566106796265,75.16778523489933,17,39,-2.0,6.0,-998.0,0,0,168,138,1,0,0,0,-12,-13,0
2025-08-07T14:22:49.778105,0.8469566106796265,75.16778523489933,17,39,-2.0,6.0,-998.0,0,0,168,138,1,0,0,0,-12,-13,0
2025-08-07T14:22:49.810617,0.8752102851867676,75.16778523489933,17,39,-2.0,6.0,-998.0,0,0,168,138,1,0,0,0,-11,-12,0
2025-08-07T14:22:49.841850,0.7356574535369873,76.71232876712328,17,39,-9.0,5.0,-998.0,0,0,168,137,1,0,0,0,-11,-13,0
2025-08-07T14:22:49.865991,0.8961869478225708,73.20261437908496,17,39,-9.0,5.0,-998.0,0,0,168,137,1,0,0,0,-11,-12,0
2025-08-07T14:22:49.888372,0.8961869478225708,73.20261437908496,17,39,-9.0,5.0,-998.0,0,0,168,137,1,0,0,0,-12,-12,0
2025-08-07T14:22:49.912488,0.8961869478225708,73.20261437908496,17,39,-9.0,5.0,-998.0,0,0,168,137,1,0,0,0,-12,-12,0
2025-08-07T14:22:49.932489,0.6505160331726074,78.87323943661971,17,39,5.0,-19.0,-1006.0,0,0,168,137,1,0,0,0,-11,-11,0
2025-08-07T14:22:49.960116,0.3109055459499359,79.15194346289752,17,39,5.0,-19.0,-1006.0,0,0,168,137,1,0,0,0,-11,-12,0
2025-08-07T14:22:49.975308,0.3109055459499359,79.15194346289752,17,39,5.0,-19.0,-1006.0,0,0,168,137,1,0,0,0,-11,-12,0
2025-08-07T14:22:49.998638,0.8630177974700928,78.32167832167832,17,39,5.0,-19.0,-1006.0,0,0,168,137,1,0,0,0,-11,-12,0
2025-08-07T14:22:50.024278,0.840537428855896,78.32167832167832,17,39,-11.0,-3.0,-1007.0,0,0,168,137,1,0,0,0,-10,-11,0
2025-08-07T14:22:50.057277,0.874774694442749,78.59649122807018,17,39,-11.0,-3.0,-1007.0,0,0,168,137,1,0,0,0,-10,-11,0
2025-08-07T14:22:50.084698,0.8484654426574707,81.45454545454545,17,39,-11.0,-3.0,-1007.0,0,0,168,137,1,0,0,0,-10,0,0
2025-08-07T14:22:50.102887,0.8484654426574707,81.45454545454545,17,39,-11.0,-3.0,-1007.0,0,0,168,137,1,0,0,0,-10,0,0
2025-08-07T14:22:50.116894,0.8694444894790649,80.57553956834532,17,39,-11.0,-3.0,-1007.0,0,0,168,137,1,0,0,0,-10,0,0
2025-08-07T14:22:50.135341,0.8694444894790649,80.57553956834532,17,39,-22.0,-7.0,-997.0,0,0,168,136,1,0,0,0,-9,0,0
2025-08-07T14:22:50.167448,0.8635923862457275,82.96296296296296,17,39,-22.0,-7.0,-997.0,0,0,168,136,1,0,0,0,-9,0,0
2025-08-07T14:22:50.203564,0.8516821265220642,82.65682656826569,17,39,-22.0,-7.0,-997.0,0,0,168,136,1,0,0,0,-9,0,0
2025-08-07T14:22:50.233635,0.8500682711601257,83.89513108614233,18,39,20.0,-15.0,-983.0,0,0,168,136,1,0,0,0,-9,0,0
2025-08-07T14:22:50.266068,0.8524141907691956,83.89513108614233,18,39,20.0,-15.0,-983.0,0,0,168,136,1,0,0,0,-9,0,0
2025-08-07T14:22:50.279193,0.8498120903968811,83.89513108614233,18,39,20.0,-15.0,-983.0,0,0,168,136,1,0,0,0,-9,0,0
2025-08-07T14:22:50.305241,0.8498120903968811,83.89513108614233,18,39,20.0,-15.0,-983.0,0,0,168,136,1,0,0,0,-9,0,0
2025-08-07T14:22:50.323192,0.8299204111099243,87.84313725490196,18,39,20.0,-15.0,-983.0,0,0,168,136,1,0,0,0,-9,0,0
2025-08-07T14:22:50.338192,0.8299204111099243,87.84313725490196,18,39,5.0,-10.0,-1002.0,0,0,168,135,1,0,0,0,-9,0,0
2025-08-07T14:22:50.354190,0.8281762599945068,92.56198347107438,18,39,5.0,-10.0,-1002.0,0,0,168,135,1,0,0,0,-8,0,0
2025-08-07T14:22:50.371192,0.8281762599945068,92.56198347107438,18,39,5.0,-10.0,-1002.0,0,0,168,135,1,0,0,0,-8,0,0
2025-08-07T14:22:50.388192,0.8374298214912415,92.9460580912863,18,39,5.0,-10.0,-1002.0,0,0,168,135,1,0,0,0,-7,0,0
2025-08-07T14:22:50.417367,0.8475250601768494,94.91525423728814,18,39,5.0,-10.0,-1002.0,0,0,168,135,1,0,0,0,-7,0,0
2025-08-07T14:22:50.443797,0.8475250601768494,94.91525423728814,18,39,-23.0,1.0,-1016.0,0,0,168,135,1,0,0,0,-7,0,0
2025-08-07T14:22:50.473974,0.8702003955841064,92.9460580912863,18,39,-23.0,1.0,-1016.0,0,0,168,135,1,0,0,0,-7,0,0
2025-08-07T14:22:50.499660,0.857937216758728,96.13733905579399,18,39,-23.0,1.0,-1016.0,0,0,168,135,1,0,0,0,-7,0,0
2025-08-07T14:22:50.531946,0.8613595962524414,96.13733905579399,18,39,-16.0,1.0,-1011.0,0,0,168,135,1,0,0,0,-6,0,0
2025-08-07T14:22:50.554044,0.8506516218185425,96.55172413793103,18,39,-16.0,1.0,-1011.0,0,0,168,135,1,0,0,0,-6,0,0
2025-08-07T14:22:50.571038,0.8506516218185425,96.55172413793103,18,39,-16.0,1.0,-1011.0,0,0,168,135,1,0,0,0,-6,0,0
2025-08-07T14:22:50.595038,0.8647574186325073,96.96969696969697,18,39,-16.0,1.0,-1011.0,0,0,168,135,1,0,0,0,-6,0,0
2025-08-07T14:22:50.618612,0.8712950348854065,96.55172413793103,18,39,-16.0,1.0,-1011.0,0,0,168,135,1,0,0,0,-6,0,0
2025-08-07T14:22:50.643821,0.8712950348854065,96.55172413793103,18,39,16.0,-8.0,-998.0,0,0,168,135,1,0,0,0,-6,0,0
2025-08-07T14:22:50.670824,0.8505607843399048,99.11504424778761,18,39,16.0,-8.0,-998.0,0,0,168,135,1,0,0,0,-6,0,0
2025-08-07T14:22:50.717288,0.8537760972976685,99.55555555555556,18,39,16.0,-8.0,-998.0,0,0,168,135,1,0,0,0,-6,0,0
2025-08-07T14:22:50.737371,0.8715137243270874,99.55555555555556,18,39,3.0,-7.0,-998.0,0,0,168,135,1,0,0,0,-6,0,0
2025-08-07T14:22:50.760379,0.875900149345398,99.55555555555556,18,39,3.0,-7.0,-998.0,0,0,168,135,1,0,0,0,-5,0,0
2025-08-07T14:22:50.776529,0.8579196333885193,100.0,18,39,3.0,-7.0,-998.0,0,0,168,135,1,0,0,0,-5,0,0
2025-08-07T14:22:50.797194,0.8579196333885193,100.0,18,39,3.0,-7.0,-998.0,0,0,168,135,1,0,0,0,-5,0,0
2025-08-07T14:22:50.829852,0.8651605844497681,98.6784140969163,18,39,3.0,-7.0,-998.0,0,0,168,135,1,0,0,0,-5,0,0
2025-08-07T14:22:50.849859,0.8651605844497681,98.6784140969163,18,39,-3.0,-5.0,-1000.0,0,0,168,136,1,0,0,0,-6,0,0
2025-08-07T14:22:50.859911,0.8423734307289124,100.0,18,39,-3.0,-5.0,-1000.0,0,0,168,136,1,0,0,0,-6,0,0
2025-08-07T14:22:50.901923,0.8423734307289124,100.0,18,39,-3.0,-5.0,-1000.0,0,0,168,136,1,0,0,0,-6,0,0
2025-08-07T14:22:50.936706,0.8643034100532532,102.75229357798165,18,39,-3.0,-5.0,-1000.0,0,0,168,136,1,0,0,0,-5,0,0
2025-08-07T14:22:50.965761,0.8557199239730835,103.70370370370371,18,39,-21.0,10.0,-1005.0,0,0,168,135,0,0,0,0,-5,0,0
2025-08-07T14:22:50.997839,0.8457963466644287,102.28310502283105,18,39,-21.0,10.0,-1005.0,0,0,168,135,0,0,0,0,-5,0,0
2025-08-07T14:22:51.025982,0.8382248282432556,105.66037735849056,18,39,-21.0,10.0,-1005.0,0,0,168,135,0,0,0,0,-5,0,0
2025-08-07T14:22:51.057138,0.8273041844367981,109.26829268292683,18,39,-24.0,11.0,-996.0,0,0,168,136,0,0,0,0,-4,0,0
2025-08-07T14:22:51.089303,0.8577864170074463,109.80392156862744,18,39,-24.0,11.0,-996.0,0,0,168,136,0,0,0,0,-4,0,0
2025-08-07T14:22:51.128303,0.8584067225456238,112.56281407035176,18,39,-24.0,11.0,-996.0,0,0,168,136,0,0,0,0,-4,0,0
2025-08-07T14:22:51.151312,0.8258171081542969,114.28571428571429,18,39,-10.0,-4.0,-1001.0,0,0,168,136,0,0,0,0,-3,0,0
2025-08-07T14:22:51.170403,0.8258171081542969,114.28571428571429,18,39,-10.0,-4.0,-1001.0,0,0,168,136,0,0,0,0,-3,0,0
2025-08-07T14:22:51.203095,0.830295741558075,116.66666666666667,18,39,-10.0,-4.0,-1001.0,0,0,168,136,0,0,0,0,-3,0,0
2025-08-07T14:22:51.231953,0.7927006483078003,116.06217616580311,18,39,-10.0,-4.0,-1001.0,0,0,168,136,0,0,0,0,-2,0,0
2025-08-07T14:22:51.265026,0.761077880859375,116.66666666666667,19,39,-8.0,-10.0,-1002.0,0,0,168,136,0,0,0,0,-2,0,0
2025-08-07T14:22:51.296363,0.8229302763938904,116.66666666666667,19,39,-8.0,-10.0,-1002.0,0,0,168,136,0,0,0,0,-2,0,0
2025-08-07T14:22:51.323366,0.6943480372428894,117.89473684210526,19,39,-8.0,-10.0,-1002.0,0,0,168,136,0,0,0,0,-2,0,0
2025-08-07T14:22:51.342622,0.3211234211921692,84.21052631578948,19,39,-8.0,-10.0,-1002.0,0,0,168,136,0,0,0,0,-4,0,0
2025-08-07T14:22:51.382798,0.3211234211921692,84.21052631578948,19,39,-9.0,-13.0,-1004.0,0,0,168,136,0,0,0,0,-5,0,0
2025-08-07T14:22:51.405229,0.2932174801826477,84.84848484848484,19,39,-9.0,-13.0,-1004.0,0,0,168,136,0,0,0,0,-6,0,0
2025-08-07T14:22:51.437682,0.8236984610557556,117.27748691099477,19,39,-9.0,-13.0,-1004.0,0,0,168,136,0,0,0,0,-6,0,0
2025-08-07T14:22:51.468744,0.8040687441825867,115.4639175257732,19,39,0.0,-7.0,-1003.0,0,0,168,136,0,0,0,0,-6,0,0
2025-08-07T14:22:51.501192,0.7931786775588989,113.13131313131314,19,39,0.0,-7.0,-1003.0,0,0,168,136,0,0,0,0,-5,0,0
2025-08-07T14:22:51.533192,0.6823292970657349,110.89108910891089,19,39,0.0,-7.0,-1003.0,0,0,168,136,0,0,0,0,-5,0,0
2025-08-07T14:22:51.566197,0.8045316934585571,110.34482758620689,19,39,0.0,-2.0,-988.0,0,0,168,135,0,0,0,0,-4,0,0
2025-08-07T14:22:51.591188,0.2824641466140747,83.58208955223881,19,39,0.0,-2.0,-988.0,0,0,168,135,0,0,0,0,-6,0,0
2025-08-07T14:22:51.613537,0.2824641466140747,83.58208955223881,19,39,0.0,-2.0,-988.0,0,0,168,135,0,0,0,0,-7,0,0
2025-08-07T14:22:51.637761,0.2897348999977112,85.82375478927203,19,39,0.0,-2.0,-988.0,0,0,168,135,0,0,0,0,-9,0,0
2025-08-07T14:22:51.657761,0.7922328114509583,118.51851851851852,19,39,-8.0,0.0,-1005.0,0,0,168,136,0,0,0,0,-9,0,0
2025-08-07T14:22:51.686761,0.7826758027076721,123.75690607734806,19,39,-8.0,0.0,-1005.0,0,0,168,136,0,0,0,0,-9,0,0
2025-08-07T14:22:51.706072,0.7826758027076721,123.75690607734806,19,39,-8.0,0.0,-1005.0,0,0,168,136,0,0,0,0,-7,0,0
2025-08-07T14:22:51.736244,0.2992163598537445,84.84848484848484,19,39,-8.0,0.0,-1005.0,0,0,168,136,0,0,0,0,-7,0,0
2025-08-07T14:22:51.768239,0.7316291332244873,115.4639175257732,19,39,-1.0,-3.0,-1010.0,0,0,168,136,0,0,0,0,-6,13,0
2025-08-07T14:22:51.800241,0.696285605430603,111.44278606965175,19,39,-1.0,-3.0,-1010.0,0,0,168,136,0,0,0,0,-7,13,0
2025-08-07T14:22:51.831238,0.6690389513969421,109.80392156862744,19,39,-1.0,-3.0,-1010.0,0,0,168,136,0,0,0,0,-7,14,0
2025-08-07T14:22:51.866591,0.785148024559021,109.26829268292683,19,39,10.0,-15.0,-984.0,0,0,168,136,0,0,0,0,-8,15,0
2025-08-07T14:22:51.898176,0.785148024559021,109.26829268292683,19,39,10.0,-15.0,-984.0,0,0,168,136,0,0,0,0,-7,15,0
2025-08-07T14:22:51.922032,0.4482758641242981,114.87179487179488,19,39,10.0,-15.0,-984.0,0,0,168,136,0,0,0,0,-8,16,0
2025-08-07T14:22:51.939445,0.4482758641242981,114.87179487179488,19,39,10.0,-15.0,-984.0,0,0,168,136,0,0,0,0,-7,16,0
2025-08-07T14:22:51.968711,0.6462472081184387,121.08108108108108,19,39,-2.0,0.0,-1007.0,0,0,168,136,0,0,0,0,-7,18,0
2025-08-07T14:22:52.001866,0.38125094771385193,89.24302788844622,19,39,-2.0,0.0,-1007.0,0,0,168,136,0,0,0,0,-8,15,0
2025-08-07T14:22:52.040662,0.35196465253829956,101.35746606334841,19,39,-2.0,0.0,-1007.0,0,0,168,136,0,0,0,0,-8,17,-13
2025-08-07T14:22:52.066124,0.6810856461524963,101.81818181818181,19,39,-14.0,9.0,-999.0,0,0,168,136,0,0,0,0,-9,15,-9
2025-08-07T14:22:52.097111,0.7211692333221436,117.27748691099477,19,39,-14.0,9.0,-999.0,0,0,168,136,0,0,0,0,-9,14,0
2025-08-07T14:22:52.123267,0.745681643486023,121.73913043478261,19,39,-14.0,9.0,-999.0,0,0,168,136,0,0,0,0,-9,16,0
2025-08-07T14:22:52.139408,0.745681643486023,121.73913043478261,19,39,-14.0,9.0,-999.0,0,0,168,136,0,0,0,0,-8,16,0
2025-08-07T14:22:52.162402,0.7398937940597534,128.73563218390805,19,39,-11.0,10.0,-1021.0,0,0,168,135,0,0,0,0,-7,16,0
2025-08-07T14:22:52.186521,0.6661249995231628,128.0,19,39,-11.0,10.0,-1021.0,0,0,168,135,0,0,0,0,-6,16,0
2025-08-07T14:22:52.204924,0.6661249995231628,128.0,19,39,-11.0,10.0,-1021.0,0,0,168,135,0,0,0,0,-5,16,0
2025-08-07T14:22:52.240110,0.7238017320632935,119.78609625668449,19,39,-11.0,10.0,-1021.0,0,0,168,135,0,0,0,0,-5,15,0
2025-08-07T14:22:52.277109,0.7327576875686646,123.07692307692308,20,39,-12.0,2.0,-1018.0,0,0,167,136,0,0,0,0,-5,16,0
2025-08-07T14:22:52.305109,0.35862401127815247,113.13131313131314,20,39,-12.0,2.0,-1018.0,0,0,167,136,0,0,0,0,-6,15,0
2025-08-07T14:22:52.331109,0.3392238914966583,120.43010752688173,20,39,-12.0,2.0,-1018.0,0,0,167,136,0,0,0,0,-6,15,0
2025-08-07T14:22:52.367127,0.369690477848053,116.66666666666667,20,39,-9.0,-1.0,-998.0,0,0,167,137,0,0,0,0,-6,15,0
2025-08-07T14:22:52.396242,0.6592864394187927,125.13966480446928,20,39,-9.0,-1.0,-998.0,0,0,167,137,0,0,0,0,-5,30,0
2025-08-07T14:22:52.432442,0.5810605883598328,112.0,20,39,-9.0,-1.0,-998.0,0,0,167,137,0,0,0,0,-5,12,0
2025-08-07T14:22:52.464890,0.33731651306152344,117.89473684210526,20,39,-9.0,-1.0,-998.0,0,0,167,137,0,0,0,0,-5,15,0
2025-08-07T14:22:52.489892,0.25455400347709656,89.6,20,39,-3.0,-18.0,-1012.0,0,0,167,137,0,0,0,0,-6,0,0
2025-08-07T14:22:52.519174,0.4481677711009979,112.0,20,39,-3.0,-18.0,-1012.0,0,0,167,137,0,0,0,0,-6,14,0
2025-08-07T14:22:52.537174,0.4481677711009979,112.0,20,39,-3.0,-18.0,-1012.0,0,0,167,137,0,0,0,0,-8,14,0
2025-08-07T14:22:52.570726,0.7413679361343384,89.95983935742971,20,39,-6.0,-1.0,-1024.0,0,0,167,137,0,0,0,0,-9,13,0
2025-08-07T14:22:52.599919,0.6413389444351196,91.80327868852459,20,39,-6.0,-1.0,-1024.0,0,0,167,137,0,0,0,0,-10,12,-9
2025-08-07T14:22:52.631917,0.5871708393096924,117.89473684210526,20,39,-6.0,-1.0,-1024.0,0,0,167,137,0,0,0,0,-10,13,0
2025-08-07T14:22:52.675862,0.8099833726882935,89.95983935742971,20,39,-13.0,3.0,-1003.0,0,0,167,137,0,0,0,0,-11,12,-13
2025-08-07T14:22:52.710187,0.5874900817871094,93.33333333333333,20,39,-13.0,3.0,-1003.0,0,0,167,137,0,0,0,0,-12,12,-7
2025-08-07T14:22:52.738465,0.6157283782958984,126.55367231638418,20,39,-13.0,3.0,-1003.0,0,0,167,137,0,0,0,0,-10,14,0
2025-08-07T14:22:52.768985,0.7024467587471008,126.55367231638418,20,39,-13.0,3.0,-1003.0,0,0,167,137,0,0,0,0,-9,13,0
2025-08-07T14:22:52.807060,0.6740197539329529,99.55555555555556,20,39,-7.0,4.0,-1003.0,0,0,167,138,0,0,0,0,-10,12,-12
2025-08-07T14:22:52.835067,0.7041831612586975,99.55555555555556,20,39,-7.0,4.0,-1003.0,0,0,167,138,0,0,0,0,-9,12,-9
2025-08-07T14:22:52.862058,0.6668956279754639,92.9460580912863,20,39,-7.0,4.0,-1003.0,0,0,167,138,0,0,0,0,-9,12,-7
2025-08-07T14:22:52.877056,0.6668956279754639,92.9460580912863,20,39,-13.0,10.0,-994.0,0,0,167,139,0,0,0,0,-10,12,-8
2025-08-07T14:22:52.901060,0.6668956279754639,92.9460580912863,20,39,-13.0,10.0,-994.0,0,0,167,139,0,0,0,0,-12,12,-8
2025-08-07T14:22:52.932327,0.4480672776699066,101.81818181818181,20,39,-13.0,10.0,-994.0,0,0,167,139,0,0,0,0,-12,12,0
2025-08-07T14:22:52.957447,0.5636107921600342,127.27272727272727,20,39,-13.0,10.0,-994.0,0,0,167,139,0,0,0,0,-11,13,0
2025-08-07T14:22:52.986958,0.5918837785720825,118.51851851851852,20,39,-14.0,10.0,-1005.0,0,0,167,140,0,0,0,0,-10,12,0
2025-08-07T14:22:53.007040,0.5918837785720825,118.51851851851852,20,39,-14.0,10.0,-1005.0,0,0,167,140,0,0,0,0,-8,12,0
2025-08-07T14:22:53.039958,0.7504063248634338,122.40437158469945,20,39,-24.0,20.0,-986.0,0,0,166,140,0,0,0,0,-7,12,0
2025-08-07T14:22:53.070962,0.8145769834518433,123.75690607734806,20,39,-24.0,20.0,-986.0,0,0,166,140,0,0,0,0,-6,12,0
2025-08-07T14:22:53.101424,0.46323201060295105,93.33333333333333,20,39,-24.0,20.0,-986.0,0,0,166,140,0,0,0,0,-8,12,0
2025-08-07T14:22:53.136872,0.804509699344635,123.07692307692308,20,39,2.0,-11.0,-1000.0,0,0,166,140,0,0,0,0,-8,12,0
2025-08-07T14:22:53.167873,0.800767183303833,125.13966480446928,20,39,2.0,-11.0,-1000.0,0,0,166,140,0,0,0,0,-7,12,0
2025-08-07T14:22:53.197644,0.7281588315963745,123.07692307692308,20,39,2.0,-11.0,-1000.0,0,0,166,140,0,0,0,0,-7,12,0
2025-08-07T14:22:53.223792,0.7200780510902405,117.89473684210526,20,39,2.0,-11.0,-1000.0,0,0,166,140,0,0,0,0,-8,12,0
2025-08-07T14:22:53.246043,0.7200780510902405,117.89473684210526,21,39,-12.0,0.0,-1002.0,0,0,166,139,0,0,0,0,-7,12,0
2025-08-07T14:22:53.277043,0.7406895756721497,91.80327868852459,21,39,-12.0,0.0,-1002.0,0,0,166,139,0,0,0,0,-8,12,0
2025-08-07T14:22:53.304507,0.7330902218818665,92.18106995884774,21,39,-12.0,0.0,-1002.0,0,0,166,139,0,0,0,0,-9,12,0
2025-08-07T14:22:53.337538,0.8008937835693359,94.51476793248945,21,39,-20.0,4.0,-990.0,0,0,166,139,0,0,0,0,-10,11,0
2025-08-07T14:22:53.372042,0.6437281370162964,103.70370370370371,21,39,-20.0,4.0,-990.0,0,0,166,139,0,0,0,0,-11,12,0
2025-08-07T14:22:53.404188,0.8024349808692932,92.56198347107438,21,39,-20.0,4.0,-990.0,0,0,166,139,0,0,0,0,-12,11,0
2025-08-07T14:22:53.435188,0.8054325580596924,95.72649572649573,21,39,-20.0,4.0,-990.0,0,0,166,139,0,0,0,0,-12,11,0
2025-08-07T14:22:53.463995,0.8020374774932861,94.11764705882354,21,39,0.0,-3.0,-998.0,0,0,166,140,0,0,0,0,-12,11,0
2025-08-07T14:22:53.490073,0.8271782994270325,92.9460580912863,21,39,0.0,-3.0,-998.0,0,0,166,140,0,0,0,0,-12,11,0
2025-08-07T14:22:53.507515,0.8271782994270325,92.9460580912863,21,39,0.0,-3.0,-998.0,0,0,166,140,0,0,0,0,-12,11,0
2025-08-07T14:22:53.537870,0.7920358777046204,95.72649572649573,21,39,-11.0,3.0,-991.0,0,0,166,140,0,0,0,0,-12,11,0
2025-08-07T14:22:53.569953,0.7772533893585205,95.72649572649573,21,39,-11.0,3.0,-991.0,0,0,166,140,0,0,0,0,-12,11,0
2025-08-07T14:22:53.605720,0.7595351934432983,99.11504424778761,21,39,-11.0,3.0,-991.0,0,0,166,140,0,0,0,0,-12,10,0
2025-08-07T14:22:53.639719,0.7891435027122498,96.55172413793103,21,39,5.0,-4.0,-1001.0,0,0,166,140,0,0,0,0,-12,10,0
2025-08-07T14:22:53.666955,0.7070646286010742,95.31914893617021,21,39,5.0,-4.0,-1001.0,0,0,166,140,0,0,0,0,-11,11,0
2025-08-07T14:22:53.699958,0.7858719825744629,123.75690607734806,21,39,5.0,-4.0,-1001.0,0,0,166,140,0,0,0,0,-10,11,0
2025-08-07T14:22:53.731122,0.768338143825531,128.0,21,39,5.0,-4.0,-1001.0,0,0,166,140,0,0,0,0,-9,11,0
2025-08-07T14:22:53.762234,0.7192217707633972,125.13966480446928,21,39,-10.0,-7.0,-991.0,0,0,166,141,0,0,0,0,-8,11,0
2025-08-07T14:22:53.789233,0.7038934826850891,125.84269662921348,21,39,-10.0,-7.0,-991.0,0,0,166,141,0,0,0,0,-7,11,0
2025-08-07T14:22:53.805238,0.7038934826850891,125.84269662921348,21,39,-10.0,-7.0,-991.0,0,0,166,141,0,0,0,0,-6,11,0
2025-08-07T14:22:53.828232,0.7237577438354492,94.91525423728814,21,39,-10.0,-7.0,-991.0,0,0,166,141,0,0,0,0,-7,0,0
2025-08-07T14:22:53.854519,0.7552952170372009,97.3913043478261,21,39,2.0,-17.0,-989.0,0,0,166,140,0,0,0,0,-8,0,0
2025-08-07T14:22:53.890584,0.7552952170372009,97.3913043478261,21,39,2.0,-17.0,-989.0,0,0,166,140,0,0,0,0,-9,0,0
2025-08-07T14:22:53.914858,0.7552952170372009,97.3913043478261,21,39,2.0,-17.0,-989.0,0,0,166,140,0,0,0,0,-10,0,0
2025-08-07T14:22:53.932472,0.7336492538452148,95.31914893617021,21,39,2.0,-17.0,-989.0,0,0,166,140,0,0,0,0,-11,0,0
2025-08-07T14:22:53.964754,0.7146614789962769,126.55367231638418,21,39,2.0,-15.0,-989.0,0,0,166,140,0,0,0,0,-10,10,0
2025-08-07T14:22:54.000163,0.5729975700378418,93.72384937238493,21,39,2.0,-15.0,-989.0,0,0,166,140,0,0,0,0,-10,0,0
2025-08-07T14:22:54.023645,0.4953833818435669,101.35746606334841,21,39,2.0,-15.0,-989.0,0,0,166,140,0,0,0,0,-10,0,0
2025-08-07T14:22:54.062927,0.637922465801239,128.0,21,39,0.0,-11.0,-977.0,0,0,166,140,0,0,0,0,-9,11,0
2025-08-07T14:22:54.097928,0.5571852922439575,98.24561403508773,21,39,0.0,-11.0,-977.0,0,0,166,140,0,0,0,0,-9,11,0
2025-08-07T14:22:54.121113,0.6831851601600647,96.55172413793103,21,39,0.0,-11.0,-977.0,0,0,166,140,0,0,0,0,-10,0,0
2025-08-07T14:22:54.152113,0.65045565366745,95.31914893617021,21,39,-11.0,-10.0,-986.0,0,0,166,140,0,0,0,0,-10,10,0
2025-08-07T14:22:54.178389,0.5810017585754395,89.95983935742971,21,39,-11.0,-10.0,-986.0,0,0,166,140,0,0,0,0,-10,10,0
2025-08-07T14:22:54.197469,0.5810017585754395,89.95983935742971,21,39,-11.0,-10.0,-986.0,0,0,166,140,0,0,0,0,-12,10,0
2025-08-07T14:22:54.225383,0.5615169405937195,94.51476793248945,21,39,-11.0,-10.0,-986.0,0,0,166,140,0,0,0,0,-12,11,0
2025-08-07T14:22:54.241930,0.5615169405937195,94.51476793248945,21,39,-11.0,-10.0,-986.0,0,0,166,140,0,0,0,0,-12,11,0
2025-08-07T14:22:54.275997,0.36722007393836975,94.11764705882354,22,39,-5.0,-16.0,-987.0,0,0,166,139,0,0,0,0,-12,0,0
2025-08-07T14:22:54.307660,0.7475624680519104,144.51612903225808,22,39,-5.0,-16.0,-987.0,0,0,166,139,0,0,0,0,-9,30,0
2025-08-07T14:22:54.342743,0.2543567717075348,95.72649572649573,22,39,-5.0,-16.0,-987.0,0,0,166,139,0,0,0,0,-9,0,0
2025-08-07T14:22:54.370681,0.4394526183605194,94.51476793248945,22,39,-3.0,-9.0,-1010.0,0,0,166,139,0,0,0,0,-9,10,0
2025-08-07T14:22:54.402674,0.7149646878242493,151.35135135135135,22,39,-3.0,-9.0,-1010.0,0,0,166,139,0,0,0,0,-6,30,0
2025-08-07T14:22:54.439677,0.37437546253204346,146.40522875816993,22,39,-3.0,-9.0,-1010.0,0,0,166,139,0,0,0,0,-4,12,0
2025-08-07T14:22:54.465774,0.2753700911998749,107.17703349282297,22,39,-5.0,-14.0,-1023.0,0,0,166,139,0,0,0,0,-6,0,0
2025-08-07T14:22:54.499595,0.66701740026474,147.3684210526316,22,39,-5.0,-14.0,-1023.0,0,0,166,139,0,0,0,0,-4,11,0
2025-08-07T14:22:54.528702,0.5721120834350586,102.28310502283105,22,39,-5.0,-14.0,-1023.0,0,0,166,139,0,0,0,0,-4,0,0
2025-08-07T14:22:54.561897,0.4949081540107727,151.35135135135135,22,39,8.0,-9.0,-1020.0,0,0,166,138,0,0,0,0,-5,11,0
2025-08-07T14:22:54.590897,0.4285281300544739,101.81818181818181,22,39,8.0,-9.0,-1020.0,0,0,166,138,0,0,0,0,-7,0,0
2025-08-07T14:22:54.618899,0.5641777515411377,141.77215189873417,22,39,8.0,-9.0,-1020.0,0,0,166,138,0,0,0,0,-6,11,0
2025-08-07T14:22:54.639100,0.5641777515411377,141.77215189873417,22,39,8.0,-9.0,-1020.0,0,0,166,138,0,0,0,0,-6,11,0
2025-08-07T14:22:54.667202,0.2947581112384796,94.51476793248945,22,39,2.0,-19.0,-986.0,0,0,166,137,0,0,0,0,-6,0,0
2025-08-07T14:22:54.700134,0.3685843348503113,103.70370370370371,22,39,2.0,-19.0,-986.0,0,0,166,137,0,0,0,0,-7,0,0
2025-08-07T14:22:54.749237,0.6555330157279968,141.77215189873417,22,39,2.0,-19.0,-986.0,0,0,166,137,0,0,0,0,-6,0,0
2025-08-07T14:22:54.782289,0.39747560024261475,143.5897435897436,22,39,11.0,-18.0,-990.0,0,0,166,136,0,0,0,0,-6,0,10
2025-08-07T14:22:54.813665,0.40310245752334595,112.0,22,39,11.0,-18.0,-990.0,0,0,166,136,0,0,0,0,-7,0,0
2025-08-07T14:22:54.843660,0.3016795814037323,144.51612903225808,22,39,11.0,-18.0,-990.0,0,0,166,136,0,0,0,0,-5,14,15
2025-08-07T14:22:54.868661,0.7154607772827148,145.45454545454547,22,39,-17.0,-6.0,-996.0,0,0,166,137,0,0,0,0,-4,0,7
2025-08-07T14:22:54.903969,0.7154607772827148,145.45454545454547,22,39,-17.0,-6.0,-996.0,0,0,166,137,0,0,0,0,-3,0,8
2025-08-07T14:22:54.930108,0.503417432308197,78.32167832167832,22,39,-17.0,-6.0,-996.0,0,0,166,137,0,0,0,0,-6,0,0
2025-08-07T14:22:54.967295,0.5207015872001648,113.70558375634518,22,39,-15.0,-8.0,-1004.0,0,0,166,136,0,0,0,0,-6,0,0
2025-08-07T14:22:55.001297,0.5604616403579712,108.7378640776699,22,39,-15.0,-8.0,-1004.0,0,0,166,136,0,0,0,0,-7,0,0
2025-08-07T14:22:55.026294,0.31098249554634094,88.53754940711462,22,39,-15.0,-8.0,-1004.0,0,0,166,136,0,0,0,0,-9,0,0
2025-08-07T14:22:55.056844,0.259091854095459,87.5,22,39,-15.0,-8.0,-1004.0,0,0,166,136,0,0,0,0,-11,0,0
2025-08-07T14:22:55.088061,0.48423609137535095,140.88050314465409,22,39,1.0,-13.0,-1010.0,0,0,166,135,0,0,0,0,-8,0,18
2025-08-07T14:22:55.119057,0.3164929449558258,87.15953307392996,22,39,1.0,-13.0,-1010.0,0,0,166,135,0,0,0,0,-10,0,0
2025-08-07T14:22:55.148431,0.3169797956943512,101.35746606334841,22,39,1.0,-13.0,-1010.0,0,0,166,135,0,0,0,0,-10,0,0
2025-08-07T14:22:55.178537,0.750078558921814,152.38095238095238,22,39,-24.0,1.0,-1007.0,0,0,165,135,0,0,0,0,-8,0,18
2025-08-07T14:22:55.198549,0.750078558921814,152.38095238095238,22,39,-24.0,1.0,-1007.0,0,0,165,135,0,0,0,0,-5,0,12
2025-08-07T14:22:55.232753,0.7256219983100891,147.3684210526316,22,39,-24.0,1.0,-1007.0,0,0,165,135,0,0,0,0,-5,0,11
2025-08-07T14:22:55.258982,0.7366926074028015,146.40522875816993,22,39,-24.0,1.0,-1007.0,0,0,165,135,0,0,0,0,-3,0,11
2025-08-07T14:22:55.292506,0.7703539729118347,134.93975903614458,23,39,-2.0,-13.0,-1001.0,0,0,165,136,0,0,0,0,-2,0,10
2025-08-07T14:22:55.318491,0.8310941457748413,152.38095238095238,23,39,-2.0,-13.0,-1001.0,0,0,165,136,0,0,0,0,-2,0,15
2025-08-07T14:22:55.335499,0.8310941457748413,152.38095238095238,23,39,-2.0,-13.0,-1001.0,0,0,165,136,0,0,0,0,-2,0,13
2025-08-07T14:22:55.370157,0.8055639266967773,149.33333333333334,23,39,-2.0,-13.0,-1001.0,0,0,165,136,0,0,0,0,-2,0,13
2025-08-07T14:22:55.405226,0.7632880806922913,145.45454545454547,23,39,-13.0,-9.0,-1011.0,0,0,166,136,0,0,0,0,-2,0,12
2025-08-07T14:22:55.441349,0.7165791988372803,146.40522875816993,23,39,-13.0,-9.0,-1011.0,0,0,166,136,0,0,0,0,-2,0,13
2025-08-07T14:22:55.465425,0.7628026604652405,148.34437086092714,23,39,-13.0,-9.0,-1011.0,0,0,166,136,0,0,0,0,-2,0,13
2025-08-07T14:22:55.495403,0.7703439593315125,147.3684210526316,23,39,-5.0,0.0,-1011.0,0,0,166,137,0,0,0,0,-2,0,13
2025-08-07T14:22:55.521827,0.7893673777580261,148.34437086092714,23,39,-5.0,0.0,-1011.0,0,0,166,137,0,0,0,0,-2,0,13
2025-08-07T14:22:55.539693,0.7893673777580261,148.34437086092714,23,39,-5.0,0.0,-1011.0,0,0,166,137,0,0,0,0,-2,0,13
2025-08-07T14:22:55.569851,0.7995508909225464,152.38095238095238,23,39,-5.0,0.0,-1011.0,0,0,166,137,0,0,0,0,-2,0,13
2025-08-07T14:22:55.602850,0.7736443877220154,147.3684210526316,23,39,0.0,-18.0,-1002.0,0,0,166,136,0,0,0,0,-2,0,12
2025-08-07T14:22:55.639863,0.6971413493156433,141.77215189873417,23,39,0.0,-18.0,-1002.0,0,0,166,136,0,0,0,0,-2,0,12
2025-08-07T14:22:55.670854,0.7657892107963562,144.51612903225808,23,39,0.0,-18.0,-1002.0,0,0,166,136,0,0,0,0,-2,0,12
2025-08-07T14:22:55.699786,0.7556853890419006,129.47976878612718,23,39,1.0,-16.0,-991.0,0,0,167,137,0,0,0,0,-3,0,9
2025-08-07T14:22:55.727911,0.7572767734527588,130.2325581395349,23,39,1.0,-16.0,-991.0,0,0,167,137,0,0,0,0,-3,0,12
2025-08-07T14:22:55.758731,0.7785993218421936,142.6751592356688,23,39,1.0,-16.0,-991.0,0,0,167,137,0,0,0,0,-3,0,13
2025-08-07T14:22:55.789738,0.7094042897224426,146.40522875816993,23,39,-22.0,-7.0,-992.0,0,0,167,138,0,0,0,0,-3,0,13
2025-08-07T14:22:55.823130,0.7371113896369934,149.33333333333334,23,39,-22.0,-7.0,-992.0,0,0,167,138,0,0,0,0,-3,0,13
2025-08-07T14:22:55.855179,0.8146110773086548,151.35135135135135,23,39,-22.0,-7.0,-992.0,0,0,167,138,0,0,0,0,-2,0,13
2025-08-07T14:22:55.887445,0.8146110773086548,151.35135135135135,23,39,-6.0,-6.0,-1013.0,0,0,167,138,0,0,0,0,-2,0,13
2025-08-07T14:22:55.916796,0.8146110773086548,151.35135135135135,23,39,-6.0,-6.0,-1013.0,0,0,167,138,0,0,0,0,-2,0,13
2025-08-07T14:22:55.944251,0.2528727054595947,150.33557046979865,23,39,-6.0,-6.0,-1013.0,0,0,167,138,0,0,0,0,-1,0,13
2025-08-07T14:22:55.975316,0.2528727054595947,150.33557046979865,23,39,-6.0,-6.0,-1013.0,0,0,167,138,0,0,0,0,-1,0,13
2025-08-07T14:22:56.009428,0.652834415435791,137.42331288343559,23,39,0.0,-6.0,-1008.0,0,0,168,139,0,0,0,0,-2,0,14
2025-08-07T14:22:56.040428,0.5478489398956299,131.76470588235293,23,39,0.0,-6.0,-1008.0,0,0,168,139,0,0,0,0,-2,0,16
2025-08-07T14:22:56.073494,0.7380257844924927,135.75757575757575,23,39,0.0,-6.0,-1008.0,0,0,168,139,0,0,0,0,-2,0,8
2025-08-07T14:22:56.106813,0.7081581950187683,144.51612903225808,23,39,0.0,-7.0,-995.0,0,0,168,139,0,0,0,0,-3,0,12
2025-08-07T14:22:56.136297,0.6927187442779541,151.35135135135135,23,39,0.0,-7.0,-995.0,0,0,168,139,0,0,0,0,-3,0,12
2025-08-07T14:22:56.164305,0.7235851287841797,144.51612903225808,23,39,0.0,-7.0,-995.0,0,0,168,139,0,0,0,0,-2,0,11
2025-08-07T14:22:56.196817,0.7019074559211731,147.3684210526316,23,39,-2.0,-10.0,-986.0,0,0,168,140,0,0,0,0,-2,0,10
2025-08-07T14:22:56.229584,0.7838367819786072,147.3684210526316,23,39,-2.0,-10.0,-986.0,0,0,168,140,0,0,0,0,-2,0,11
2025-08-07T14:22:56.258627,0.7441235780715942,140.0,23,39,-2.0,-10.0,-986.0,0,0,168,140,0,0,0,0,-2,0,10
2025-08-07T14:22:56.287912,0.7467002868652344,147.3684210526316,23,39,-2.0,-10.0,-986.0,0,0,168,140,0,0,0,0,-2,0,10
2025-08-07T14:22:56.330497,0.8345968723297119,151.35135135135135,24,39,6.0,-11.0,-1001.0,0,0,168,141,0,0,0,0,-2,0,11
2025-08-07T14:22:56.353628,0.8459745049476624,152.38095238095238,24,39,6.0,-11.0,-1001.0,0,0,168,141,0,0,0,0,-2,0,11
2025-08-07T14:22:56.384228,0.8310423493385315,151.35135135135135,24,39,6.0,-11.0,-1001.0,0,0,168,141,0,0,0,0,-2,0,10
2025-08-07T14:22:56.411236,0.7818654775619507,151.35135135135135,24,39,-32.0,-5.0,-988.0,0,0,168,142,0,0,0,0,-1,0,10
2025-08-07T14:22:56.429313,0.7818654775619507,151.35135135135135,24,39,-32.0,-5.0,-988.0,0,0,168,142,0,0,0,0,-1,0,10
2025-08-07T14:22:56.462238,0.7997512221336365,151.35135135135135,24,39,-32.0,-5.0,-988.0,0,0,168,142,0,0,0,0,-1,0,11
2025-08-07T14:22:56.491265,0.7840942740440369,152.38095238095238,24,39,-32.0,-5.0,-988.0,0,0,168,142,0,0,0,0,-1,0,10
2025-08-07T14:22:56.527441,0.7843112349510193,151.35135135135135,24,39,2.0,-18.0,-993.0,0,0,168,142,0,0,0,0,-1,0,11
2025-08-07T14:22:56.559440,0.7984644174575806,152.38095238095238,24,39,2.0,-18.0,-993.0,0,0,168,142,0,0,0,0,-1,0,10
2025-08-07T14:22:56.577446,0.7850032448768616,154.48275862068965,24,39,2.0,-18.0,-993.0,0,0,168,142,0,0,0,0,-1,0,10
2025-08-07T14:22:56.605347,0.7850032448768616,154.48275862068965,24,39,2.0,-12.0,-989.0,0,0,168,142,0,0,0,0,-1,0,10
2025-08-07T14:22:56.633688,0.7516809105873108,148.34437086092714,24,39,2.0,-12.0,-989.0,0,0,168,142,0,0,0,0,-1,0,9
2025-08-07T14:22:56.666216,0.5336697101593018,121.73913043478261,24,39,2.0,-12.0,-989.0,0,0,168,142,0,0,0,0,-2,0,0
2025-08-07T14:22:56.696644,0.7494910955429077,147.3684210526316,24,39,2.0,-12.0,-989.0,0,0,168,142,0,0,0,0,-2,0,13
2025-08-07T14:22:56.732645,0.7836407423019409,151.35135135135135,24,39,-20.0,-6.0,-988.0,0,0,168,143,0,0,0,0,-2,0,10
2025-08-07T14:22:56.761763,0.821487307548523,151.35135135135135,24,39,-20.0,-6.0,-988.0,0,0,168,143,0,0,0,0,-2,0,10
2025-08-07T14:22:56.786038,0.8045555353164673,142.6751592356688,24,39,-20.0,-6.0,-988.0,0,0,168,143,0,0,0,0,-2,0,8
2025-08-07T14:22:56.807166,0.8045555353164673,142.6751592356688,24,39,-12.0,-8.0,-996.0,0,0,169,145,0,0,0,0,-2,0,9
2025-08-07T14:22:56.838127,0.7809408903121948,147.3684210526316,24,39,-12.0,-8.0,-996.0,0,0,169,145,0,0,0,0,-1,0,9
2025-08-07T14:22:56.867936,0.8173672556877136,148.34437086092714,24,39,-15.0,-3.0,-985.0,0,0,169,145,0,0,0,0,-1,0,9
2025-08-07T14:22:56.900938,0.8173672556877136,148.34437086092714,24,39,-15.0,-3.0,-985.0,0,0,169,145,0,0,0,0,-1,0,9
2025-08-07T14:22:56.938052,0.39461392164230347,85.49618320610686,24,39,-15.0,-3.0,-985.0,0,0,169,145,0,0,0,0,-3,0,0
2025-08-07T14:22:56.969055,0.4586060047149658,152.38095238095238,24,39,0.0,-8.0,-988.0,0,0,169,145,0,0,0,0,-2,30,19
2025-08-07T14:22:57.001554,0.7028993368148804,151.35135135135135,24,39,0.0,-8.0,-988.0,0,0,169,145,0,0,0,0,-2,0,9
2025-08-07T14:22:57.030823,0.8658273220062256,151.35135135135135,24,39,0.0,-8.0,-988.0,0,0,169,145,0,0,0,0,-2,0,8
2025-08-07T14:22:57.053962,0.840241551399231,150.33557046979865,24,39,0.0,-8.0,-988.0,0,0,169,145,0,0,0,0,-2,0,7
2025-08-07T14:22:57.072289,0.840241551399231,150.33557046979865,24,39,2.0,-19.0,-987.0,0,0,169,146,0,0,0,0,0,0,8
2025-08-07T14:22:57.104726,0.7728915810585022,151.35135135135135,24,39,2.0,-19.0,-987.0,0,0,169,146,0,0,0,0,-1,0,7
2025-08-07T14:22:57.136679,0.8368965983390808,152.38095238095238,24,39,2.0,-19.0,-987.0,0,0,169,146,0,0,0,0,-1,0,8
2025-08-07T14:22:57.172077,0.7862868309020996,144.51612903225808,24,39,-4.0,-1.0,-1011.0,0,0,170,148,0,0,0,0,-1,0,0
2025-08-07T14:22:57.204188,0.7962426543235779,140.0,24,39,-4.0,-1.0,-1011.0,0,0,170,148,0,0,0,0,-1,0,0
2025-08-07T14:22:57.233187,0.7938643097877502,139.1304347826087,24,39,-4.0,-1.0,-1011.0,0,0,170,148,0,0,0,0,-2,0,0
2025-08-07T14:22:57.266397,0.8151106238365173,153.42465753424656,25,39,-1.0,-7.0,-999.0,0,0,170,148,0,0,0,0,-2,0,0
2025-08-07T14:22:57.297807,0.7988370060920715,152.38095238095238,25,39,-1.0,-7.0,-999.0,0,0,170,148,0,0,0,0,-2,0,0
2025-08-07T14:22:57.327575,0.810383141040802,151.35135135135135,25,39,-1.0,-7.0,-999.0,0,0,170,148,0,0,0,0,-1,0,0
2025-08-07T14:22:57.353790,0.7871031165122986,149.33333333333334,25,39,-1.0,-7.0,-999.0,0,0,170,148,0,0,0,0,-1,0,0
2025-08-07T14:22:57.388043,0.8254978060722351,151.35135135135135,25,39,-2.0,5.0,-999.0,0,0,170,148,0,0,0,0,-1,0,0
2025-08-07T14:22:57.409309,0.8254978060722351,151.35135135135135,25,39,-2.0,5.0,-999.0,0,0,170,148,0,0,0,0,-1,0,0
2025-08-07T14:22:57.436640,0.8416644930839539,152.38095238095238,25,39,-2.0,5.0,-999.0,0,0,170,148,0,0,0,0,-1,0,0
2025-08-07T14:22:57.465600,0.7894900441169739,147.3684210526316,25,39,-9.0,-19.0,-985.0,0,0,170,147,0,0,0,0,-1,0,0
2025-08-07T14:22:57.497599,0.2792491614818573,85.49618320610686,25,39,-9.0,-19.0,-985.0,0,0,170,147,0,0,0,0,-3,0,0
2025-08-07T14:22:57.528307,0.7592628598213196,140.88050314465409,25,39,-9.0,-19.0,-985.0,0,0,170,147,0,0,0,0,-4,0,0
2025-08-07T14:22:57.563487,0.7563450932502747,142.6751592356688,25,39,-9.0,-19.0,-985.0,0,0,170,147,0,0,0,0,-4,0,0
2025-08-07T14:22:57.587236,0.7700178027153015,140.0,25,39,3.0,-19.0,-974.0,0,0,170,147,0,0,0,0,-4,0,0
2025-08-07T14:22:57.622699,0.7672474980354309,136.58536585365854,25,39,3.0,-19.0,-974.0,0,0,170,147,0,0,0,0,-4,0,0
2025-08-07T14:22:57.655253,0.7642181515693665,138.2716049382716,25,39,3.0,-19.0,-974.0,0,0,170,147,0,0,0,0,-2,0,0
2025-08-07T14:22:57.686991,0.8222735524177551,148.34437086092714,25,39,-3.0,-12.0,-987.0,0,0,170,148,0,0,0,0,-2,0,0
2025-08-07T14:22:57.714100,0.7754495143890381,141.77215189873417,25,39,-3.0,-12.0,-987.0,0,0,170,148,0,0,0,0,-2,0,0
2025-08-07T14:22:57.743460,0.7960866093635559,141.77215189873417,25,39,-3.0,-12.0,-987.0,0,0,170,148,0,0,0,0,-2,0,0
2025-08-07T14:22:57.774951,0.7946639657020569,143.5897435897436,25,39,3.0,0.0,-1003.0,0,0,170,147,0,0,0,0,-2,0,0
2025-08-07T14:22:57.795798,0.7946639657020569,143.5897435897436,25,39,3.0,0.0,-1003.0,0,0,170,147,0,0,0,0,-2,0,0
2025-08-07T14:22:57.826510,0.8166878819465637,148.34437086092714,25,39,3.0,0.0,-1003.0,0,0,170,147,0,0,0,0,-2,0,0
2025-08-07T14:22:57.858512,0.8020448088645935,147.3684210526316,25,39,3.0,0.0,-1003.0,0,0,170,147,0,0,0,0,-2,0,0
2025-08-07T14:22:57.889511,0.8020448088645935,147.3684210526316,25,39,-16.0,0.0,-995.0,0,0,170,146,0,0,0,0,-2,0,0
2025-08-07T14:22:57.914212,0.6559243202209473,142.6751592356688,25,39,-16.0,0.0,-995.0,0,0,170,146,0,0,0,0,-1,27,0
2025-08-07T14:22:57.948179,0.6559243202209473,142.6751592356688,25,39,-16.0,0.0,-995.0,0,0,170,146,0,0,0,0,0,27,0
2025-08-07T14:22:57.977451,0.7374804615974426,144.51612903225808,25,39,2.0,-8.0,-995.0,0,0,170,145,0,0,0,0,0,0,0
2025-08-07T14:22:58.010851,0.7374804615974426,144.51612903225808,25,39,2.0,-8.0,-995.0,0,0,170,145,0,0,0,0,0,0,0
2025-08-07T14:22:58.045946,0.7811678051948547,145.45454545454547,25,39,2.0,-8.0,-995.0,0,0,170,145,0,0,0,0,0,0,0
2025-08-07T14:22:58.076810,0.8110561966896057,148.34437086092714,25,39,2.0,-8.0,-995.0,0,0,170,145,0,0,0,0,-1,0,0
2025-08-07T14:22:58.111672,0.764672577381134,147.3684210526316,25,39,-6.0,1.0,-1031.0,0,0,170,145,0,0,0,0,-2,0,0
2025-08-07T14:22:58.139799,0.7850363254547119,147.3684210526316,25,39,-6.0,1.0,-1031.0,0,0,170,145,0,0,0,0,-2,0,0
2025-08-07T14:22:58.169721,0.30040016770362854,85.17110266159696,25,39,-6.0,1.0,-1031.0,0,0,170,145,0,0,0,0,-4,0,-18
2025-08-07T14:22:58.197675,0.7998912334442139,148.34437086092714,25,39,4.0,-5.0,-1002.0,0,0,170,145,0,0,0,0,-4,0,0
2025-08-07T14:22:58.232941,0.7518975138664246,146.40522875816993,25,39,4.0,-5.0,-1002.0,0,0,170,145,0,0,0,0,-4,0,0
2025-08-07T14:22:58.265164,0.794420599937439,146.40522875816993,25,39,4.0,-5.0,-1002.0,0,0,170,145,0,0,0,0,-4,0,0
2025-08-07T14:22:58.288163,0.7924873232841492,143.5897435897436,26,39,-8.0,9.0,-1006.0,0,0,170,144,0,0,0,0,-4,0,0
2025-08-07T14:22:58.314166,0.7924873232841492,143.5897435897436,26,39,-8.0,9.0,-1006.0,0,0,170,144,0,0,0,0,-2,0,0
2025-08-07T14:22:58.338164,0.7958661913871765,144.51612903225808,26,39,-8.0,9.0,-1006.0,0,0,170,144,0,0,0,0,-2,0,0
2025-08-07T14:22:58.364265,0.737581193447113,141.77215189873417,26,39,-8.0,9.0,-1006.0,0,0,170,144,0,0,0,0,-2,0,0
2025-08-07T14:22:58.387041,0.7428668141365051,145.45454545454547,26,39,-16.0,6.0,-1014.0,0,0,170,144,0,0,0,0,-2,0,0
2025-08-07T14:22:58.416406,0.7965518832206726,147.3684210526316,26,39,-16.0,6.0,-1014.0,0,0,170,144,0,0,0,0,-2,0,0
2025-08-07T14:22:58.447409,0.7823179364204407,145.45454545454547,26,39,-16.0,6.0,-1014.0,0,0,170,144,0,0,0,0,-2,0,0
2025-08-07T14:22:58.483898,0.773213803768158,143.5897435897436,26,39,-16.0,6.0,-1014.0,0,0,170,144,0,0,0,0,-2,0,0
2025-08-07T14:22:58.513320,0.7582882642745972,142.6751592356688,26,39,-10.0,-5.0,-995.0,0,0,170,145,0,0,0,0,-2,0,0
2025-08-07T14:22:58.548502,0.7582882642745972,142.6751592356688,26,39,-10.0,-5.0,-995.0,0,0,170,145,0,0,0,0,-2,0,0
2025-08-07T14:22:58.574327,0.7294804453849792,142.6751592356688,26,39,-10.0,-5.0,-995.0,0,0,170,145,0,0,0,0,-2,0,0
2025-08-07T14:22:58.607115,0.7307127714157104,138.2716049382716,26,39,-10.0,-4.0,-1002.0,0,0,170,145,0,0,0,0,-3,0,0
2025-08-07T14:22:58.638010,0.7344954609870911,139.1304347826087,26,39,-10.0,-4.0,-1002.0,0,0,170,145,0,0,0,0,-3,0,0
2025-08-07T14:22:58.668690,0.6436957120895386,141.77215189873417,26,39,-10.0,-4.0,-1002.0,0,0,170,145,0,0,0,0,-3,0,0
2025-08-07T14:22:58.706230,0.8000001311302185,146.40522875816993,26,39,7.0,-8.0,-1003.0,0,0,170,145,0,0,0,0,-3,0,0
2025-08-07T14:22:58.733521,0.25816139578819275,94.11764705882354,26,39,7.0,-8.0,-1003.0,0,0,170,145,0,0,0,0,-4,0,0
2025-08-07T14:22:58.763698,0.7902273535728455,141.77215189873417,26,39,7.0,-8.0,-1003.0,0,0,170,145,0,0,0,0,-4,0,0
2025-08-07T14:22:58.794194,0.5502620935440063,140.0,26,39,-24.0,6.0,-1003.0,0,0,170,144,0,0,0,0,-4,0,0
2025-08-07T14:22:58.822443,0.43286487460136414,138.2716049382716,26,39,-24.0,6.0,-1003.0,0,0,170,144,0,0,0,0,-4,0,0
2025-08-07T14:22:58.852947,0.7995509505271912,150.33557046979865,26,39,-24.0,6.0,-1003.0,0,0,170,144,0,0,0,0,-3,30,0
2025-08-07T14:22:58.887049,0.7995509505271912,150.33557046979865,26,39,-24.0,6.0,-1003.0,0,0,170,144,0,0,0,0,0,30,0
2025-08-07T14:22:58.920425,0.7995509505271912,150.33557046979865,26,39,-10.0,-2.0,-1008.0,0,0,170,146,0,0,0,0,0,30,0
2025-08-07T14:22:58.949768,0.7583138942718506,149.33333333333334,26,39,-10.0,-2.0,-1008.0,0,0,170,146,0,0,0,0,8,30,0
2025-08-07T14:22:58.978773,0.7583138942718506,149.33333333333334,26,39,-10.0,-2.0,-1008.0,0,0,170,146,0,0,0,0,15,30,0
2025-08-07T14:22:59.014478,0.7705559730529785,149.33333333333334,26,39,6.0,-1.0,-1009.0,0,0,170,146,0,0,0,0,15,30,0
2025-08-07T14:22:59.043715,0.30427706241607666,116.06217616580311,26,39,6.0,-1.0,-1009.0,0,0,170,146,0,0,0,0,0,0,0
2025-08-07T14:22:59.070936,0.37526917457580566,88.88888888888889,26,39,6.0,-1.0,-1009.0,0,0,170,146,0,0,0,0,-2,0,-18
2025-08-07T14:22:59.099666,0.7643014788627625,138.2716049382716,26,39,0.0,-8.0,-1047.0,0,0,170,145,0,0,0,0,-2,30,0
2025-08-07T14:22:59.130774,0.6983091831207275,134.1317365269461,26,39,0.0,-8.0,-1047.0,0,0,170,145,0,0,0,0,-2,30,0
2025-08-07T14:22:59.166823,0.7436181902885437,131.76470588235293,26,39,0.0,-8.0,-1047.0,0,0,170,145,0,0,0,0,-2,30,0
2025-08-07T14:22:59.198156,0.30819547176361084,89.95983935742971,26,39,0.0,-8.0,-1047.0,0,0,170,145,0,0,0,0,-4,0,-21
2025-08-07T14:22:59.225669,0.31803634762763977,92.56198347107438,26,39,-10.0,13.0,-1008.0,0,0,170,146,0,0,0,0,-3,0,-8
2025-08-07T14:22:59.257869,0.3850995600223541,87.5,26,39,-10.0,13.0,-1008.0,0,0,170,146,0,0,0,0,-6,0,-12
2025-08-07T14:22:59.289870,0.5334749817848206,113.70558375634518,26,39,-10.0,13.0,-1008.0,0,0,170,146,0,0,0,0,-8,0,0
2025-08-07T14:22:59.321490,0.3450816869735718,93.72384937238493,27,39,-12.0,5.0,-1006.0,0,0,170,146,0,0,0,0,-11,0,-15
2025-08-07T14:22:59.355707,0.29889875650405884,89.24302788844622,27,39,-12.0,5.0,-1006.0,0,0,170,146,0,0,0,0,-11,0,-14
2025-08-07T14:22:59.385920,0.29889875650405884,89.24302788844622,27,39,-12.0,5.0,-1006.0,0,0,170,146,0,0,0,0,-11,0,-12
2025-08-07T14:22:59.413918,0.2971334159374237,87.84313725490196,27,39,-12.0,3.0,-975.0,0,0,170,147,0,0,0,0,-10,0,-12
2025-08-07T14:22:59.447695,0.7102224826812744,120.43010752688173,27,39,-12.0,3.0,-975.0,0,0,170,147,0,0,0,0,-10,0,0
2025-08-07T14:22:59.475786,0.28026166558265686,89.95983935742971,27,39,-12.0,3.0,-975.0,0,0,170,147,0,0,0,0,-10,0,-19
2025-08-07T14:22:59.508244,0.28026166558265686,89.95983935742971,27,39,-5.0,6.0,-982.0,0,0,169,149,0,0,0,0,-9,0,-12
2025-08-07T14:22:59.539582,0.6772135496139526,108.7378640776699,27,39,-5.0,6.0,-982.0,0,0,169,149,0,0,0,0,-8,0,0
2025-08-07T14:22:59.577083,0.6423559188842773,108.7378640776699,27,39,-5.0,6.0,-982.0,0,0,169,149,0,0,0,0,-8,0,-8
2025-08-07T14:22:59.611082,0.5824888348579407,103.2258064516129,27,39,-13.0,1.0,-985.0,0,0,169,149,0,0,0,0,-9,0,-11
2025-08-07T14:22:59.636524,0.5435985326766968,126.55367231638418,27,39,-13.0,1.0,-985.0,0,0,169,149,0,0,0,0,-8,11,0
2025-08-07T14:22:59.665272,0.6658368110656738,124.44444444444444,27,39,-13.0,1.0,-985.0,0,0,169,149,0,0,0,0,-7,10,0
2025-08-07T14:22:59.700289,0.3633362352848053,122.40437158469945,27,39,-13.0,1.0,-985.0,0,0,169,149,0,0,0,0,-7,0,-8
2025-08-07T14:22:59.726824,0.5085916519165039,113.13131313131314,27,39,-11.0,0.0,-981.0,0,0,169,150,0,0,0,0,-6,0,-11
2025-08-07T14:22:59.757830,0.5904243588447571,102.28310502283105,27,39,-11.0,0.0,-981.0,0,0,169,150,0,0,0,0,-6,0,-16
2025-08-07T14:22:59.790316,0.5011422634124756,100.90090090090091,27,39,-11.0,0.0,-981.0,0,0,169,150,0,0,0,0,-7,0,-13
2025-08-07T14:22:59.828145,0.7519103288650513,90.68825910931174,27,39,-2.0,1.0,-988.0,0,0,169,150,0,0,0,0,-9,0,-20
2025-08-07T14:22:59.854295,0.7921884655952454,98.24561403508773,27,39,-2.0,1.0,-988.0,0,0,169,150,0,0,0,0,-10,0,-18
2025-08-07T14:22:59.885292,0.7921401858329773,103.2258064516129,27,39,-2.0,1.0,-988.0,0,0,169,150,0,0,0,0,-10,0,-19
2025-08-07T14:22:59.913878,0.7570669651031494,108.7378640776699,27,39,-2.0,1.0,-988.0,0,0,169,150,0,0,0,0,-9,30,-20
2025-08-07T14:22:59.949878,0.5880340337753296,104.18604651162791,27,39,-15.0,-1.0,-983.0,0,0,169,150,0,0,0,0,-9,0,-23
2025-08-07T14:22:59.981882,0.6431870460510254,106.1611374407583,27,39,-15.0,-1.0,-983.0,0,0,169,150,0,0,0,0,-8,0,-26
2025-08-07T14:23:00.016268,0.6431870460510254,106.1611374407583,27,39,-15.0,-1.0,-983.0,0,0,169,150,0,0,0,0,-7,0,-24
2025-08-07T14:23:00.045968,0.6879151463508606,105.66037735849056,27,39,2.0,2.0,-999.0,0,0,168,149,0,0,0,0,-7,0,-28
2025-08-07T14:23:00.073792,0.7492086887359619,108.21256038647343,27,39,2.0,2.0,-999.0,0,0,168,149,0,0,0,0,-9,0,-30
2025-08-07T14:23:00.102791,0.3327656090259552,121.08108108108108,27,39,2.0,2.0,-999.0,0,0,168,149,0,0,0,0,-8,0,-30
2025-08-07T14:23:00.132608,0.5833048820495605,100.90090090090091,27,39,-4.0,5.0,-1025.0,0,0,168,148,0,0,0,0,-8,0,-25
2025-08-07T14:23:00.165206,0.5794965028762817,103.70370370370371,27,39,-4.0,5.0,-1025.0,0,0,168,148,0,0,0,0,-8,0,-30
2025-08-07T14:23:00.196200,0.5990203619003296,114.87179487179488,27,39,-4.0,5.0,-1025.0,0,0,168,148,0,0,0,0,-8,0,-30
2025-08-07T14:23:00.235517,0.2572520971298218,69.78193146417445,27,39,6.0,-6.0,-986.0,0,0,167,148,0,0,0,0,-10,0,-8
